<?xml version="1.0" encoding="UTF-8"?>
<PlaceSearchResponse>
 <status>OK</status>
 <result>
  <name>Penobscot County Sheriff</name>
  <type>police</type>
  <type>local_government_office</type>
  <type>point_of_interest</type>
  <type>establishment</type>
  <formatted_address>85 Hammond St, Bangor, ME 04401, United States</formatted_address>
  <geometry>
   <location>
    <lat>44.8019649</lat>
    <lng>-68.7732141</lng>
   </location>
   <viewport>
    <southwest>
     <lat>44.8012503</lat>
     <lng>-68.7732474</lng>
    </southwest>
    <northeast>
     <lat>44.8022031</lat>
     <lng>-68.7731142</lng>
    </northeast>
   </viewport>
  </geometry>
  <icon>https://maps.gstatic.com/mapfiles/place_api/icons/police-71.png</icon>
  <reference>CmRSAAAAb2BXikMom1rfwC77Pl-D2gVWN_fPpx9hrjNeIy10kHLg7-5qYuaF_xGZa8tE4hhqSJ4YWus-3MX8xI-TE-I9uEAre2WcvUcED9CsFhF9BH_EaZkyeKzCDWVoCoQW0eYFEhCH0zb7jdYTJWYed8uwK0G2GhRUOFj2qeUYv8wa0Fqig1au55ioQA</reference>
  <id>d3e486099201d6b16983efa558233154f4fd03f6</id>
  <place_id>ChIJb9zoH0VLrkwRW1SDDQApPf0</place_id>
 </result>
 <result>
  <name>Penobscot County Federal Credit Union</name>
  <type>finance</type>
  <type>point_of_interest</type>
  <type>establishment</type>
  <formatted_address>205 Main St, Old Town, ME 04468, United States</formatted_address>
  <geometry>
   <location>
    <lat>44.9374120</lat>
    <lng>-68.6475880</lng>
   </location>
  </geometry>
  <icon>https://maps.gstatic.com/mapfiles/place_api/icons/generic_business-71.png</icon>
  <reference>CmRRAAAAPO7E3jjBMPUQtlhTnYImQzvvlF_oTd9KaSrwU6_RnLw_NlHQMWycoS1rk7lFCayQwPANuvjUdhuED2GJhcnhceX5Dbu_q6io5WxJ8FDirmPtWxvFe6-GrhBfDRBNUuIMEhALp_T6wSiIqxt22cvXt-EiGhRqOc9bWGtbCdoC8xz51gMJuSoABQ</reference>
  <id>788321dc35e3100c56381e45eb180da814d50166</id>
  <opening_hours>
   <open_now>false</open_now>
  </opening_hours>
  <photo>
   <photo_reference>CoQBdwAAAAzZEMhLqF3a5zI0UxKsXHGL7Hxe401SzN_y-Z-C3hNGYlQs-b8XytUAIqqYP65VVni8J4pPZYH2FBEff0P1tXqnPbwbqv4y9e7_oJ3ablP8POvKSqzJkdi_oBZSPS7ZePqWSF2EX2OT4Gn_B9GlZCXu-oOWtefpBW36nLJmhuxLEhBO9VbytgO1f4dUT0bgzDijGhRgb6a5EAuycZ_Cxpil_xILgZgPxQ</photo_reference>
   <width>1270</width>
   <height>1270</height>
   <html_attribution>&lt;a href=&quot;https://maps.google.com/maps/contrib/111021776122718178507/photos&quot;&gt;Penobscot County Federal Credit Union&lt;/a&gt;</html_attribution>
  </photo>
  <place_id>ChIJec15-LGwr0wRIHw1T_W_4xU</place_id>
 </result>
 <result>
  <name>Penobscot County Federal Credit Union</name>
  <type>atm</type>
  <type>finance</type>
  <type>point_of_interest</type>
  <type>establishment</type>
  <formatted_address>466 Main St, Bangor, ME 04401, United States</formatted_address>
  <geometry>
   <location>
    <lat>44.7901630</lat>
    <lng>-68.7769920</lng>
   </location>
   <viewport>
    <southwest>
     <lat>44.7901470</lat>
     <lng>-68.7771699</lng>
    </southwest>
    <northeast>
     <lat>44.7902110</lat>
     <lng>-68.7769327</lng>
    </northeast>
   </viewport>
  </geometry>
  <icon>https://maps.gstatic.com/mapfiles/place_api/icons/generic_business-71.png</icon>
  <reference>CmRSAAAAJi7y7E3i7UOI0iXRJCWZzcJpyctAJI2l-DNu7KIwKZwomHkNyXdwWynlmKn8M7ozdFWEbg_RlN-c5kqDBAt11BwqA6F1Jqhnpkc3lDH2PGcy8GWyTQhM-OOL8iX5PSmxEhBzzWDqqQ9UoTo37E0bNV7xGhQ8T_ADtwjbX1fgaY5lZVLXTVmaMQ</reference>
  <id>f702636ea35ef9c2af61d87bb49906271b78d159</id>
  <opening_hours>
   <open_now>false</open_now>
  </opening_hours>
  <place_id>ChIJYfsa32VLrkwRRW39wzLT7LM</place_id>
 </result>
 <result>
  <name>Penobscot County Federal Credit Union</name>
  <type>atm</type>
  <type>finance</type>
  <type>point_of_interest</type>
  <type>establishment</type>
  <formatted_address>16 Coffin St, Howland, ME 04448, United States</formatted_address>
  <geometry>
   <location>
    <lat>45.2382668</lat>
    <lng>-68.6597570</lng>
   </location>
   <viewport>
    <southwest>
     <lat>45.2381481</lat>
     <lng>-68.6601404</lng>
    </southwest>
    <northeast>
     <lat>45.2386228</lat>
     <lng>-68.6596292</lng>
    </northeast>
   </viewport>
  </geometry>
  <icon>https://maps.gstatic.com/mapfiles/place_api/icons/generic_business-71.png</icon>
  <reference>CmRSAAAA5u64KisThzeaH8Nfn6CmvgvH5OdIK0pclOr5gsUbUMlbOl_-x2kOJnLiQvgIjC0DZmQkEHLJTX_mBVRJM0dtHKsm1y6C1d3BSefOh-7J827tyjA6b852-382_zecEfx7EhDUEhdCXem91o7QNSuOSVCaGhTnXSFL4xGH1IoZvBm3Cvfqa-rdJg</reference>
  <id>976132cda23f8bd8a27edf4b008cfb2588089a16</id>
  <opening_hours>
   <open_now>false</open_now>
  </opening_hours>
  <place_id>ChIJWbuvReDtr0wRsthJWHFUo6Y</place_id>
 </result>
 <result>
  <name>UMaine Cooperative Extension</name>
  <type>point_of_interest</type>
  <type>establishment</type>
  <formatted_address>307 Maine Ave, Bangor, ME 04401, United States</formatted_address>
  <geometry>
   <location>
    <lat>44.8072356</lat>
    <lng>-68.8062978</lng>
   </location>
   <viewport>
    <southwest>
     <lat>44.8071611</lat>
     <lng>-68.8067323</lng>
    </southwest>
    <northeast>
     <lat>44.8074590</lat>
     <lng>-68.8061529</lng>
    </northeast>
   </viewport>
  </geometry>
  <icon>https://maps.gstatic.com/mapfiles/place_api/icons/generic_business-71.png</icon>
  <reference>CmRRAAAAHqwIvZSHeMMiQ2SppWB41fs8D1ILU4l73c9quKF16L45VVE4u0VTDMnke_w3P1x_YxzPPPDV3bepSMVfuPyIQTFSH5bwqhr8rZC7oKPdfANj5l50E-83DccHSO8RFdL0EhDncN3MGpkosSp8pcOrAmrfGhQ1xHVQU4bYKZ1dmuXFculEr6ez5A</reference>
  <id>236e049ee3c3e92a18e283034344a1a747b6bc79</id>
  <place_id>ChIJwZzmziBLrkwRiBsnI3xlfmc</place_id>
 </result>
 <result>
  <name>Penobscot County Soil &amp; Water Conservation District</name>
  <type>local_government_office</type>
  <type>point_of_interest</type>
  <type>establishment</type>
  <formatted_address>1423 Broadway #2, Bangor, ME 04401, United States</formatted_address>
  <geometry>
   <location>
    <lat>44.8437796</lat>
    <lng>-68.7986769</lng>
   </location>
   <viewport>
    <southwest>
     <lat>44.8437040</lat>
     <lng>-68.7988346</lng>
    </southwest>
    <northeast>
     <lat>44.8438048</lat>
     <lng>-68.7986244</lng>
    </northeast>
   </viewport>
  </geometry>
  <icon>https://maps.gstatic.com/mapfiles/place_api/icons/civic_building-71.png</icon>
  <reference>CmRRAAAAU_8dJw7B4luQcaOOQ27VQbztpSZuo0S0f8rsa4du0IQP3AUJBGwoI7T9v8-Vepo493RZ5dUEu9oRX5z8ktUo0sJRmXabtE-i-xHrP6kX26pRbHTuACzk0v69MtdTcMaqEhBaR_QAiUXFo04UxnSGVE9tGhS-xxuCvJOmdXNNfPGz94ek86VcXQ</reference>
  <id>5f1df98113bd6dcf904b19ec95eb24037b008ddb</id>
  <opening_hours>
   <open_now>false</open_now>
  </opening_hours>
  <place_id>ChIJBypFFhG1r0wRYUzrsk8CRSo</place_id>
 </result>
 <result>
  <name>Penobscot Conservation Associates</name>
  <type>point_of_interest</type>
  <type>establishment</type>
  <formatted_address>570 N Main St, Brewer, ME 04412, United States</formatted_address>
  <geometry>
   <location>
    <lat>44.8069290</lat>
    <lng>-68.7466993</lng>
   </location>
  </geometry>
  <icon>https://maps.gstatic.com/mapfiles/place_api/icons/generic_business-71.png</icon>
  <reference>CmRRAAAA4Q_GDtPLgU16UK2Uhom5mRCEUcV-cRl0IVg0hv7VezSranWozvvjWBopvSuaAL2IWowjrtwFvaAdi5BZbO9mmpC3b5FC6Iy14WnZk7rRN8sWWpQdmMZi35RvndsOKoZ5EhA6vKgS3zEw8aqeHhHrO864GhQvy1PacENJy1sQP9IsLWf7TdCFvg</reference>
  <id>89991b33739cfbb22ca9f2dd0b5e436f8ec77cc3</id>
  <place_id>ChIJb4KAVaxMrkwR5lDYBeB3cVE</place_id>
 </result>
</PlaceSearchResponse>
<?xml version="1.0" encoding="UTF-8"?>
<PlaceSearchResponse>
 <status>OK</status>
 <result>
  <name>Piscataquis Registry of Deeds</name>
  <type>local_government_office</type>
  <type>point_of_interest</type>
  <type>establishment</type>
  <formatted_address>159 E Main St #10, Dover-Foxcroft, ME 04426, United States</formatted_address>
  <geometry>
   <location>
    <lat>45.1835122</lat>
    <lng>-69.2272529</lng>
   </location>
   <viewport>
    <southwest>
     <lat>45.1834648</lat>
     <lng>-69.2272580</lng>
    </southwest>
    <northeast>
     <lat>45.1835904</lat>
     <lng>-69.2272444</lng>
    </northeast>
   </viewport>
  </geometry>
  <icon>https://maps.gstatic.com/mapfiles/place_api/icons/civic_building-71.png</icon>
  <reference>CmRRAAAAKcy0BwC-ojp7sNDXebYICvcCm-FQ172nEFQszUO9wOjJy8f63VQTqB6NO9K7iDPy7WHcZBbHOq9xbkUFJ85aoh4Zgjo1lMgAtKaMBj3v3Vk9wNhgY8qKataosi_Dezm9EhD9SvM9SZWNv_K7-jv_a346GhSNwK9kX0YC6kU29MvpFtF--qPPDg</reference>
  <id>46b637c3b02e8906365437169072aa50b5a53328</id>
  <place_id>ChIJJcMusvkisEwRC9RLpX1YQmE</place_id>
 </result>
 <result>
  <name>Piscataquis County Administration</name>
  <type>local_government_office</type>
  <type>point_of_interest</type>
  <type>establishment</type>
  <formatted_address>163 E Main St, Dover-Foxcroft, ME 04426, United States</formatted_address>
  <geometry>
   <location>
    <lat>45.1798511</lat>
    <lng>-69.2174770</lng>
   </location>
   <viewport>
    <southwest>
     <lat>45.1797593</lat>
     <lng>-69.2177443</lng>
    </southwest>
    <northeast>
     <lat>45.1798817</lat>
     <lng>-69.2173879</lng>
    </northeast>
   </viewport>
  </geometry>
  <icon>https://maps.gstatic.com/mapfiles/place_api/icons/civic_building-71.png</icon>
  <reference>CmRSAAAAts194jcBb2kOsvt_q5Rc7q_vu_ACkSSdZX_WrkFaBJ_7DCAZ95-44_XgmAVr1AdfKROgT6Rfq1UEa7O_nRNGTXqJ7tbhJ_xZV6hbo9wzAM1p94XEJMdYLUsdl9nXNpigEhADFKRrZmfa47sD4ShLOVf7GhQ2fZruI9LWldPoN62hiDfIlum-DA</reference>
  <id>5a32ce8a11b98a7a60b33789c10a2f4e272ecfb4</id>
  <place_id>ChIJ_8IusvkisEwRNHwZ81-jVNw</place_id>
 </result>
 <result>
  <name>Piscataquis County Sheriff</name>
  <type>police</type>
  <type>local_government_office</type>
  <type>point_of_interest</type>
  <type>establishment</type>
  <formatted_address>52 Court St, Dover-Foxcroft, ME 04426, United States</formatted_address>
  <geometry>
   <location>
    <lat>45.1806165</lat>
    <lng>-69.2253198</lng>
   </location>
   <viewport>
    <southwest>
     <lat>45.1806089</lat>
     <lng>-69.2254336</lng>
    </southwest>
    <northeast>
     <lat>45.1806305</lat>
     <lng>-69.2252576</lng>
    </northeast>
   </viewport>
  </geometry>
  <icon>https://maps.gstatic.com/mapfiles/place_api/icons/police-71.png</icon>
  <reference>CmRRAAAAwySKXgjYuL89oP7-_xCvCZDRCQupNTGnA2HBpAhRB4SIoMsFckOiZT4MMCwQWvD-B5gfJzqYFES7KFElhlgkpBpc__PVTlljsTmRWAC6W3jpLa14WTP_7NzsUCjU8XmAEhDxuS0BJn4L74uczkVaGOxUGhRkMpBwKXPWPuQVimoy2PCb00_0zQ</reference>
  <id>baed8c49893b0233f5508245889ef967284100c8</id>
  <place_id>ChIJGza84foisEwRf0rMUz7csWQ</place_id>
 </result>
 <result>
  <name>Piscataquis County Jail</name>
  <type>point_of_interest</type>
  <type>establishment</type>
  <formatted_address>52 Court St, Dover-Foxcroft, ME 04426, United States</formatted_address>
  <geometry>
   <location>
    <lat>45.1827194</lat>
    <lng>-69.2242956</lng>
   </location>
   <viewport>
    <southwest>
     <lat>45.1827015</lat>
     <lng>-69.2247789</lng>
    </southwest>
    <northeast>
     <lat>45.1827730</lat>
     <lng>-69.2241345</lng>
    </northeast>
   </viewport>
  </geometry>
  <icon>https://maps.gstatic.com/mapfiles/place_api/icons/civic_building-71.png</icon>
  <reference>CmRSAAAAeXWh1BRuf3e2AUGesP3-jr18INWmaI7-IQZ-wyaIb5RlrlXXX1FhCRk8eigRnzj95hVRgbVlsQoKNAmIUrc47rvqIX7ngJ9On-vTsP8CUqVhnjGKZK3DyA7q5Cbpdl52EhDrpLrZDq4ZxGoHWpYA6FoAGhSrIvcTQEvh8VvREV5QxfeI8duPRQ</reference>
  <id>5eda4f88a974cd538d0775c317ff3dfec08847de</id>
  <place_id>ChIJGza84foisEwR087S8AkD89A</place_id>
 </result>
 <result>
  <name>Piscataquis Chamber of Commerce</name>
  <type>point_of_interest</type>
  <type>establishment</type>
  <formatted_address>1033 South St, Dover-Foxcroft, ME 04426, United States</formatted_address>
  <geometry>
   <location>
    <lat>45.1722340</lat>
    <lng>-69.2305910</lng>
   </location>
   <viewport>
    <southwest>
     <lat>45.1722300</lat>
     <lng>-69.2307819</lng>
    </southwest>
    <northeast>
     <lat>45.1722458</lat>
     <lng>-69.2305273</lng>
    </northeast>
   </viewport>
  </geometry>
  <icon>https://maps.gstatic.com/mapfiles/place_api/icons/civic_building-71.png</icon>
  <reference>CmRRAAAAhjk1MsMx28eAH8tmxMd1byOa1skY3pgDNUqI_l1eGF8QeFbSHMvKkeIYnMareL895s80KpvMRJCTAN04rNewnletObRzHYxTBFgZkK4hZCiVJF0ohfF7h_thqH3zUfnaEhA7r19IWR8r_eZ01mGv0O2OGhS971EFg3Ti645mGkLHNInmb2wE5g</reference>
  <id>fc318a001ef3187214dd907691489a74da655bc5</id>
  <opening_hours>
   <open_now>false</open_now>
  </opening_hours>
  <place_id>ChIJZW4y-gIjsEwRZNcTaVMLEm8</place_id>
 </result>
 <result>
  <name>Superior Court</name>
  <type>courthouse</type>
  <type>point_of_interest</type>
  <type>establishment</type>
  <formatted_address>159 E Main St # 21, Dover-Foxcroft, ME 04426, United States</formatted_address>
  <geometry>
   <location>
    <lat>45.1832176</lat>
    <lng>-69.2241268</lng>
   </location>
  </geometry>
  <icon>https://maps.gstatic.com/mapfiles/place_api/icons/civic_building-71.png</icon>
  <reference>CmRSAAAAtqKp1ibI6KePar_fg6WBzHK4F2OjiT_CZaHPXNZmQoTJ5usKNjGgD9RaMPKzaG3m9WCiqXhE7ICFG21cTqyhLskJULUIrr8n-1THzaoIxsLe-2nb8Cj98lpyknsm3223EhAwSwZqiOzUlb8uHxEO7_gHGhTktI-pd395YwNY9CnOBptodYdUjw</reference>
  <id>5991d89afb6d8d62bdb1c94d3f350b3b3aa6377a</id>
  <place_id>ChIJJcMusvkisEwRhcsOb5X83fQ</place_id>
 </result>
 <result>
  <name>Piscataquis County Republican Headquarters</name>
  <type>local_government_office</type>
  <type>point_of_interest</type>
  <type>establishment</type>
  <formatted_address>25 North St, Dover-Foxcroft, ME 04426, United States</formatted_address>
  <geometry>
   <location>
    <lat>45.1852192</lat>
    <lng>-69.2309138</lng>
   </location>
   <viewport>
    <southwest>
     <lat>45.1851781</lat>
     <lng>-69.2311942</lng>
    </southwest>
    <northeast>
     <lat>45.1852329</lat>
     <lng>-69.2308204</lng>
    </northeast>
   </viewport>
  </geometry>
  <icon>https://maps.gstatic.com/mapfiles/place_api/icons/civic_building-71.png</icon>
  <reference>CmRRAAAALVC9VEKXxM4NIrqVW-QKIKhDsqu7jUX_TDTSHnptiT88ZhUfQBczzLVk4wm8o6VowDgqy94rDToaE4KAfFb4H7IJDA3Vt-n4WdGNQHM9JaXIztr2MdjPi8_Nc9zUsIWJEhDTENHuVwm6UoT5sMcZbcmCGhQhIofdNwj0LGyi9arDHjgNhjcmjg</reference>
  <id>a8a72b12dea0d22a67a9e7c6459805b628a013a8</id>
  <opening_hours>
   <open_now>false</open_now>
  </opening_hours>
  <place_id>ChIJr65INe8isEwRlBB3TLtkwmo</place_id>
 </result>
 <result>
  <name>Piscataquis Valley Fairgrounds</name>
  <type>campground</type>
  <type>park</type>
  <type>lodging</type>
  <type>point_of_interest</type>
  <type>establishment</type>
  <formatted_address>77 Fairview Ave, Dover-Foxcroft, ME 04426, United States</formatted_address>
  <geometry>
   <location>
    <lat>45.1894914</lat>
    <lng>-69.2182164</lng>
   </location>
   <viewport>
    <southwest>
     <lat>45.1890064</lat>
     <lng>-69.2215812</lng>
    </southwest>
    <northeast>
     <lat>45.1896531</lat>
     <lng>-69.2170948</lng>
    </northeast>
   </viewport>
  </geometry>
  <icon>https://maps.gstatic.com/mapfiles/place_api/icons/camping-71.png</icon>
  <reference>CmRSAAAAsJebysR5rnJbAcgy66JScoqOsyZJT2u5cvrMImTcwYJX8TJP803b7bhe8HU-yVRdMJI9nDgds1RZeKIl9f68f7Z5Pa3qKkBaD2hebJm2lveMGswxqcO-SlV8Z6rBXhZlEhBMs3Yz6l8DpYXWcDrSHQ-DGhScvSShS-GRSqt5oNo4HT9KIPePsA</reference>
  <id>f2a170702a105568c07c964fcb4fdd6f808069ae</id>
  <photo>
   <photo_reference>CoQBdwAAAL8Kfgwc9qHSulCbKwHaWM05VnBlWS4JwT-6cBaBHzs_QEToUxFNkMFO-Rj0yufdteu3nVmHTkRJE7GfyGCNjcCbcsyMjYVmbfNU_PDvL3RWupYsWfyHrG5cAs4BQspr_jxtc-jwMdYK5g60AF9axR3ihm-NLfUjOm3YTl8fjPwhEhCdvofHF9THF4GWgW-8ENOXGhRG8YICKX-EsTLT5NW-adlcV-D5_w</photo_reference>
   <width>3264</width>
   <height>2448</height>
   <html_attribution>&lt;a href=&quot;https://maps.google.com/maps/contrib/106058782893840457502/photos&quot;&gt;Cathy Gauthier&lt;/a&gt;</html_attribution>
  </photo>
  <place_id>ChIJ28WyfvEisEwRu8lBNyp6P7w</place_id>
 </result>
 <result>
  <name>Indian Restaurant In Maine</name>
  <type>restaurant</type>
  <type>food</type>
  <type>point_of_interest</type>
  <type>establishment</type>
  <formatted_address>Piscataquis County, ME, United States</formatted_address>
  <geometry>
   <location>
    <lat>45.2537830</lat>
    <lng>-69.4454689</lng>
   </location>
  </geometry>
  <icon>https://maps.gstatic.com/mapfiles/place_api/icons/restaurant-71.png</icon>
  <reference>CmRSAAAApmmvKLC0C9V26Yi6HM5hT55mdGNetbPCO9hows_j2iB_MjGvptuXnn6TrVifr2_xa00ZSWSNALX-lzMYsQQi31Xsr5es5Xxy7KmtXvYk22YI2xX2mJnWHLzgogjOZgRFEhBbZwI6NKGVaZyZhB-r_qtlGhRbOSmUUwFD4Jkfj1VTQBK7sNfzug</reference>
  <id>adb022ba53d8ee75bb38dfa3616d670489b64a70</id>
  <place_id>ChIJ______8_sEwRc2iAQozoF54</place_id>
 </result>
 <result>
  <name>Piscataquis Valley Adult Education Cooperative (PVAEC)</name>
  <type>point_of_interest</type>
  <type>establishment</type>
  <formatted_address>50 Mayo St, Dover-Foxcroft, ME 04426, United States</formatted_address>
  <geometry>
   <location>
    <lat>45.1920964</lat>
    <lng>-69.2295872</lng>
   </location>
  </geometry>
  <icon>https://maps.gstatic.com/mapfiles/place_api/icons/school-71.png</icon>
  <reference>CmRSAAAAPrAnMv2Sb7YkrGKpAotzyigH38k3jRBu73ecJPYaJ7adq_pOFOsBRk1LnVjjGVQgKI7-2XzxSQYdtT5vKFB06rXQqVthiAC2fnYWiRam7gZ-4p68MaTw0dFfwJ61qBq0EhD3jvxj5zJ8mUZwMp_6hI6HGhSnE2EjJBgEOCEY6VWBye50N6sj7A</reference>
  <id>ff4a21685d1554b4da5c98b205bea7846e34c1eb</id>
  <photo>
   <photo_reference>CoQBdwAAAPdTWUawDsJvXLHG_eMgHPsqztDc0aM96hj5wxl9VBHvdWXxUfz2hOAtqZTflKVjw7e1JdpF_Q-Nq0lk0o2AmASKXevZ8iBDIpWdtKdtDbjE0Oz3JvhbO7PvY4hG72PNtieuDP_3wZib2PeG-cIEyv36c7cBsafxazCxun9krXs9EhCKH1C5EUzS2ApLcRR68WcLGhQUWGphskA9Lh-h2y3DiyaueHSA5A</photo_reference>
   <width>1222</width>
   <height>1222</height>
   <html_attribution>&lt;a href=&quot;https://maps.google.com/maps/contrib/110207028788866865993/photos&quot;&gt;Piscataquis Valley Adult Education Cooperative (PVAEC)&lt;/a&gt;</html_attribution>
  </photo>
  <place_id>ChIJvUlp4eoisEwRbYuCJWqtsac</place_id>
 </result>
 <result>
  <name>Ymca</name>
  <type>point_of_interest</type>
  <type>establishment</type>
  <formatted_address>48 Park St, Dover-Foxcroft, ME 04426, United States</formatted_address>
  <geometry>
   <location>
    <lat>45.1916240</lat>
    <lng>-69.2371028</lng>
   </location>
   <viewport>
    <southwest>
     <lat>45.1915493</lat>
     <lng>-69.2371483</lng>
    </southwest>
    <northeast>
     <lat>45.1916649</lat>
     <lng>-69.2370775</lng>
    </northeast>
   </viewport>
  </geometry>
  <icon>https://maps.gstatic.com/mapfiles/place_api/icons/school-71.png</icon>
  <reference>CmRSAAAABlMtzUw_M2LbcZ9GTldJcaEVAxt-lYqAI3PzEhbvvIQvcXuYtKWiSkWaHY0G0tF3KEDEuKBuJ_7Ve3GsTMHrt3IF4dLyZHJSjie6M66_x04Pm6b39vOxfck6GmmaVJ9bEhCqtzsEDT9mcHBVFWRMKERDGhRyyuGksc1Ntykju52BkLk-S9_4tw</reference>
  <id>f69d406e7a48408d9480f224ce83e8ff7eba02ff</id>
  <opening_hours>
   <open_now>false</open_now>
  </opening_hours>
  <place_id>ChIJVeb7CcEisEwRpVtiC_9osLo</place_id>
 </result>
 <result>
  <name>Freedom House Bed &amp; Breakfast</name>
  <type>lodging</type>
  <type>point_of_interest</type>
  <type>establishment</type>
  <formatted_address>140 E Main St, Dover-Foxcroft, ME 04426, United States</formatted_address>
  <geometry>
   <location>
    <lat>45.1806393</lat>
    <lng>-69.2185210</lng>
   </location>
   <viewport>
    <southwest>
     <lat>45.1806119</lat>
     <lng>-69.2185712</lng>
    </southwest>
    <northeast>
     <lat>45.1806889</lat>
     <lng>-69.2184298</lng>
    </northeast>
   </viewport>
  </geometry>
  <icon>https://maps.gstatic.com/mapfiles/place_api/icons/lodging-71.png</icon>
  <reference>CmRRAAAADM0CaMUc_VrY5DErNOav7wea1onqZ9LGCzqIyCCqeZqLOB5X9awRKaFTDDLujKoz-Z0ZlmybiN50aBhiiwhM1GU2NphYebuPAVnxTuvH8x97Hxi2DfwZYwRoY4NI0_bsEhC-4UuxCm_jvB20TcOIFwNrGhRuIqLKd3KP_nff5M_HK9SXczO1OQ</reference>
  <id>3fe4f829bb055d57ad3b7190380d0d9cd09ead28</id>
  <place_id>ChIJc69t9O8isEwRc5uwWDkWDnQ</place_id>
 </result>
 <result>
  <name>Baxter State Park</name>
  <type>park</type>
  <type>point_of_interest</type>
  <type>establishment</type>
  <formatted_address>64 Balsam Drive, Millinocket, ME 04462, United States</formatted_address>
  <geometry>
   <location>
    <lat>46.0612509</lat>
    <lng>-68.9367715</lng>
   </location>
   <viewport>
    <southwest>
     <lat>45.6597666</lat>
     <lng>-69.0028408</lng>
    </southwest>
    <northeast>
     <lat>46.3170071</lat>
     <lng>-68.7385637</lng>
    </northeast>
   </viewport>
  </geometry>
  <rating>4.7</rating>
  <icon>https://maps.gstatic.com/mapfiles/place_api/icons/generic_recreational-71.png</icon>
  <reference>CmRSAAAA_uXQJjEwINtUJA9Ry7LWXMyOj9KLR3Y6103EmuBzxpsRy-1O3vEa9k9t74IEm0pd9gXa9rTo8PcJxro1NarGd-WrmLjWAsgf6OvtPp6WU0DoZgOuUSREWRYYlHX8OrcYEhA9EHFd-mBhW02h0QFGRgxlGhQzPVI43cpnxKh_cusWDoV7Dc3zxg</reference>
  <id>dc4697b4b1bb6215f5b84c41303a2434c6b57079</id>
  <opening_hours>
   <open_now>false</open_now>
  </opening_hours>
  <photo>
   <photo_reference>CoQBdwAAAK8Z2sf-qfVlSgzzXQlBSyT_UKQlEb7NdHOCnP4N791kxcKh18ujV0z2KD0uVMako1kIlbdPYL0F5luN1j1csI-hLxtsYbTzm7v1iGVnoziupXAwS_0xJ_71Y_Wrd6srmtoWd77oaBurOqetC7CSySHulqB7uJQ5pn1gA0dwVc3yEhAaFburgWSxqkdKb3b--GeAGhQpNIQOvWsgAueEYGH0fqBjnqd9Bw</photo_reference>
   <width>4608</width>
   <height>3456</height>
   <html_attribution>&lt;a href=&quot;https://maps.google.com/maps/contrib/110302699848997270605/photos&quot;&gt;Brian&lt;/a&gt;</html_attribution>
  </photo>
  <place_id>ChIJ92-mnyzhukwR8UaU54_FMaY</place_id>
 </result>
</PlaceSearchResponse>
<?xml version="1.0" encoding="UTF-8"?>
<PlaceSearchResponse>
 <status>OK</status>
 <result>
  <name>Piscataquis Registry of Deeds</name>
  <type>local_government_office</type>
  <type>point_of_interest</type>
  <type>establishment</type>
  <formatted_address>159 E Main St #10, Dover-Foxcroft, ME 04426, United States</formatted_address>
  <geometry>
   <location>
    <lat>45.1835122</lat>
    <lng>-69.2272529</lng>
   </location>
   <viewport>
    <southwest>
     <lat>45.1834648</lat>
     <lng>-69.2272580</lng>
    </southwest>
    <northeast>
     <lat>45.1835904</lat>
     <lng>-69.2272444</lng>
    </northeast>
   </viewport>
  </geometry>
  <icon>https://maps.gstatic.com/mapfiles/place_api/icons/civic_building-71.png</icon>
  <reference>CmRRAAAAeDjzRYABvsWak0F7-jDV04mosjxOQJVypXBxQDqNOenoS72hsJpZr9XWTaa18H0zaNkQjHkmAeEhDk0uNZoZp9qYAjDxglcPCsaQ6zbhwWtZuOOdrfKlXt03UBdSAJLiEhCxg2meVggxS-c3Q6gCrJiPGhQzgVkNrehwYPbI3psbnZ8UIqb0Vg</reference>
  <id>46b637c3b02e8906365437169072aa50b5a53328</id>
  <place_id>ChIJJcMusvkisEwRC9RLpX1YQmE</place_id>
 </result>
 <result>
  <name>Piscataquis County Administration</name>
  <type>local_government_office</type>
  <type>point_of_interest</type>
  <type>establishment</type>
  <formatted_address>163 E Main St, Dover-Foxcroft, ME 04426, United States</formatted_address>
  <geometry>
   <location>
    <lat>45.1798511</lat>
    <lng>-69.2174770</lng>
   </location>
   <viewport>
    <southwest>
     <lat>45.1797593</lat>
     <lng>-69.2177443</lng>
    </southwest>
    <northeast>
     <lat>45.1798817</lat>
     <lng>-69.2173879</lng>
    </northeast>
   </viewport>
  </geometry>
  <icon>https://maps.gstatic.com/mapfiles/place_api/icons/civic_building-71.png</icon>
  <reference>CmRSAAAArzuNUji5VIYm83uG-bPlgk3gsyl9d7nSmmjc-bdDCgsq8h9srpCXXTW6h5Db9gg16pGkjAvk1KeLpJ7yxQHMvq0ijg22KhnboBorapXLVc0WyYfPoEWFQr96XY3e6LpHEhCry0MYZxkZvrITtcACFTjTGhT8hscFn31n919C73gK69yjP3KnRQ</reference>
  <id>5a32ce8a11b98a7a60b33789c10a2f4e272ecfb4</id>
  <place_id>ChIJ_8IusvkisEwRNHwZ81-jVNw</place_id>
 </result>
 <result>
  <name>Piscataquis County Sheriff</name>
  <type>police</type>
  <type>local_government_office</type>
  <type>point_of_interest</type>
  <type>establishment</type>
  <formatted_address>52 Court St, Dover-Foxcroft, ME 04426, United States</formatted_address>
  <geometry>
   <location>
    <lat>45.1806165</lat>
    <lng>-69.2253198</lng>
   </location>
   <viewport>
    <southwest>
     <lat>45.1806089</lat>
     <lng>-69.2254336</lng>
    </southwest>
    <northeast>
     <lat>45.1806305</lat>
     <lng>-69.2252576</lng>
    </northeast>
   </viewport>
  </geometry>
  <icon>https://maps.gstatic.com/mapfiles/place_api/icons/police-71.png</icon>
  <reference>CmRRAAAAEQtxLR1kgSZ589ybhs7-0E9IJcc5PfgwOpxl9hqnooZ5Myl01FJtHYHKFds6Wr3hQm4IuDGv6XSq1Ai2Gz7QroNtaHtmW612ivzNGUXI-FTSsJeTjdfHUzH4oEyr3rhSEhCBAwnTGrvGk6v-SFFwCUj5GhQ_BeGigAb8ci5u4Lrj3qQs0iTnkQ</reference>
  <id>baed8c49893b0233f5508245889ef967284100c8</id>
  <place_id>ChIJGza84foisEwRf0rMUz7csWQ</place_id>
 </result>
 <result>
  <name>Piscataquis County Jail</name>
  <type>point_of_interest</type>
  <type>establishment</type>
  <formatted_address>52 Court St, Dover-Foxcroft, ME 04426, United States</formatted_address>
  <geometry>
   <location>
    <lat>45.1827194</lat>
    <lng>-69.2242956</lng>
   </location>
   <viewport>
    <southwest>
     <lat>45.1827015</lat>
     <lng>-69.2247789</lng>
    </southwest>
    <northeast>
     <lat>45.1827730</lat>
     <lng>-69.2241345</lng>
    </northeast>
   </viewport>
  </geometry>
  <icon>https://maps.gstatic.com/mapfiles/place_api/icons/civic_building-71.png</icon>
  <reference>CmRSAAAArJ1pUNxHpK6WPEYbodtzAj_al8CO_TndzMV3AVDX-_KLeRYw3fXCHU1BjvyDyOVgOdDM_gTp-RulFezD-RO6GDIgyDPYQPL4NEtkQ9LFHO-frUv6nH1wie02IWNpgIKKEhARmyF5hIqbMNNS0SB44vnyGhS8I4aTq_PzLHruaTmbhsgAPJ5IFg</reference>
  <id>5eda4f88a974cd538d0775c317ff3dfec08847de</id>
  <place_id>ChIJGza84foisEwR087S8AkD89A</place_id>
 </result>
 <result>
  <name>Piscataquis Chamber of Commerce</name>
  <type>point_of_interest</type>
  <type>establishment</type>
  <formatted_address>1033 South St, Dover-Foxcroft, ME 04426, United States</formatted_address>
  <geometry>
   <location>
    <lat>45.1722340</lat>
    <lng>-69.2305910</lng>
   </location>
   <viewport>
    <southwest>
     <lat>45.1722300</lat>
     <lng>-69.2307819</lng>
    </southwest>
    <northeast>
     <lat>45.1722458</lat>
     <lng>-69.2305273</lng>
    </northeast>
   </viewport>
  </geometry>
  <icon>https://maps.gstatic.com/mapfiles/place_api/icons/civic_building-71.png</icon>
  <reference>CmRRAAAA3cxQ5j0Us2CLo4ANczjFb-f1Uc_hRkU-7cFCAxB1UMx9-D8nHLC8-Z0EnbKW01nA72tJ1eOFMp2Rk6pt9ineLWsOslLZ9JnZgccdmWlPeEfk7tH20nyoMJA0d-Zj-YvjEhCG8vbQlAzFeU7Nq3UHmSdtGhSNyZdaAmeRQrnjvsC-LswYQXF0Mw</reference>
  <id>fc318a001ef3187214dd907691489a74da655bc5</id>
  <opening_hours>
   <open_now>false</open_now>
  </opening_hours>
  <place_id>ChIJZW4y-gIjsEwRZNcTaVMLEm8</place_id>
 </result>
 <result>
  <name>Superior Court</name>
  <type>courthouse</type>
  <type>point_of_interest</type>
  <type>establishment</type>
  <formatted_address>159 E Main St # 21, Dover-Foxcroft, ME 04426, United States</formatted_address>
  <geometry>
   <location>
    <lat>45.1832176</lat>
    <lng>-69.2241268</lng>
   </location>
  </geometry>
  <icon>https://maps.gstatic.com/mapfiles/place_api/icons/civic_building-71.png</icon>
  <reference>CmRSAAAA1OxDJjewzp-KSNNDL1msl2_SuSlfisimuO9FIo93zavCL4aUVphnoiQOkasdqvfjW39vSmDl2Wa2ZVFs2m7c7qfo8fkQqNqNvhfpPWzWXNi9VRGEFrhH4MZGGnnsZWU1EhDBMtfNF6aIHAAtQfIKv-rKGhT4epxuMxrC9qYzwFBvN4NfQqPY3g</reference>
  <id>5991d89afb6d8d62bdb1c94d3f350b3b3aa6377a</id>
  <place_id>ChIJJcMusvkisEwRhcsOb5X83fQ</place_id>
 </result>
 <result>
  <name>Piscataquis County Republican Headquarters</name>
  <type>local_government_office</type>
  <type>point_of_interest</type>
  <type>establishment</type>
  <formatted_address>25 North St, Dover-Foxcroft, ME 04426, United States</formatted_address>
  <geometry>
   <location>
    <lat>45.1852192</lat>
    <lng>-69.2309138</lng>
   </location>
   <viewport>
    <southwest>
     <lat>45.1851781</lat>
     <lng>-69.2311942</lng>
    </southwest>
    <northeast>
     <lat>45.1852329</lat>
     <lng>-69.2308204</lng>
    </northeast>
   </viewport>
  </geometry>
  <icon>https://maps.gstatic.com/mapfiles/place_api/icons/civic_building-71.png</icon>
  <reference>CmRRAAAAPre_8qZ7e1jKfZ0cwlS9G1ZE8sZ7ZnMVFHFZN4y1wbjy2whw40qC3SYXZvaGg1OnRYdJiL5uuOYlcv9qXvRroO6y2QXjJ1MovezOYCFakEs1OR7VLl2-gbDbqiN0NtVUEhDusYdT03k4SOaEHZwxc1SPGhS_G6WSSEnTRMkJWoKaxmTENArxwg</reference>
  <id>a8a72b12dea0d22a67a9e7c6459805b628a013a8</id>
  <opening_hours>
   <open_now>false</open_now>
  </opening_hours>
  <place_id>ChIJr65INe8isEwRlBB3TLtkwmo</place_id>
 </result>
 <result>
  <name>Piscataquis Valley Fairgrounds</name>
  <type>campground</type>
  <type>park</type>
  <type>lodging</type>
  <type>point_of_interest</type>
  <type>establishment</type>
  <formatted_address>77 Fairview Ave, Dover-Foxcroft, ME 04426, United States</formatted_address>
  <geometry>
   <location>
    <lat>45.1894914</lat>
    <lng>-69.2182164</lng>
   </location>
   <viewport>
    <southwest>
     <lat>45.1890064</lat>
     <lng>-69.2215812</lng>
    </southwest>
    <northeast>
     <lat>45.1896531</lat>
     <lng>-69.2170948</lng>
    </northeast>
   </viewport>
  </geometry>
  <icon>https://maps.gstatic.com/mapfiles/place_api/icons/camping-71.png</icon>
  <reference>CmRSAAAApub-0ZZCs_9bxs9DJBXoebypcE3atXrqluUnXgVebzFmX3ODVUL5kKHhCX4tZrMx9tFRvLfqWcDubulMqurNjobbIONB4mJGUy_fMSVdtpd6CYl1qoJyDDfYmcoGILgUEhDO5IEngxxcMpyUNlEM6R3PGhQHHuDRoaCyRAuXfkyuIQeKNy52BA</reference>
  <id>f2a170702a105568c07c964fcb4fdd6f808069ae</id>
  <photo>
   <photo_reference>CoQBdwAAAHo94EB5H7DDdxx64Bo4EKbnRm6KAUOv5nW3zrHC4OcgGuXs8cT_6laBzfXObmg6gN6G6rHnAaTCQfeY3sk2k5_-5dIBVVBUAPd7xPiRzKdTNjRE1IOBKBGYUOOa5-GIJDh85tmzJbFgBq_IElDOzFmD6v4TvXM4RvlmsjO03mxZEhAcwUFwhePcoyl1El4-29t8GhRnAsN1zxC3edcLDLvMKw8_n7vnjA</photo_reference>
   <width>3264</width>
   <height>2448</height>
   <html_attribution>&lt;a href=&quot;https://maps.google.com/maps/contrib/106058782893840457502/photos&quot;&gt;Cathy Gauthier&lt;/a&gt;</html_attribution>
  </photo>
  <place_id>ChIJ28WyfvEisEwRu8lBNyp6P7w</place_id>
 </result>
 <result>
  <name>Indian Restaurant In Maine</name>
  <type>restaurant</type>
  <type>food</type>
  <type>point_of_interest</type>
  <type>establishment</type>
  <formatted_address>Piscataquis County, ME, United States</formatted_address>
  <geometry>
   <location>
    <lat>45.2537830</lat>
    <lng>-69.4454689</lng>
   </location>
  </geometry>
  <icon>https://maps.gstatic.com/mapfiles/place_api/icons/restaurant-71.png</icon>
  <reference>CmRSAAAAvtqAVgxMJMRmc-j_ZERFAyxb5zfifTg1-Gua2q0J_f0R7hZK4EolK2sSZH4Pcm6BU4BvRdk6crUXwX95QkZBZ8brDWY2s9x5ti0mFnK8dc3orWr5KQB3JjHNnc5Xm46nEhAnfuY_W6x6on2-ZEOimUAiGhTVH_wV-Qo_BS0U_ujnB2vWFPfObA</reference>
  <id>adb022ba53d8ee75bb38dfa3616d670489b64a70</id>
  <place_id>ChIJ______8_sEwRc2iAQozoF54</place_id>
 </result>
 <result>
  <name>Piscataquis Valley Adult Education Cooperative (PVAEC)</name>
  <type>point_of_interest</type>
  <type>establishment</type>
  <formatted_address>50 Mayo St, Dover-Foxcroft, ME 04426, United States</formatted_address>
  <geometry>
   <location>
    <lat>45.1920964</lat>
    <lng>-69.2295872</lng>
   </location>
  </geometry>
  <icon>https://maps.gstatic.com/mapfiles/place_api/icons/school-71.png</icon>
  <reference>CmRSAAAAnZ8tEOhqeg6u-Cb536BMATVbLtElitQvkzGLRYs8laBatu8gRREytaeBomGnsHuJI6z12kivhJLrkI83Et9BZTVV0BLxBY2R46N3wCcqkWpQr5nuQkYS3yr9lC5FX_VzEhBv5eOWYwwatPx1QYOqxJdYGhSzVCvq966oI7lXtITQPXr0NV5r3Q</reference>
  <id>ff4a21685d1554b4da5c98b205bea7846e34c1eb</id>
  <photo>
   <photo_reference>CoQBdwAAANQEqN21Te-_CZMEayVw0Sh1Jo9N8_1_fBsgeK6Z8X2KxfBX4E34moHEdmYHAay0qPUzRQV7ovGM-xMJvhRqLsuLwCcNrA2xnMiDWWYKzHG1JtsgtpTm_auNjnwrvOY7dDGYNgrn5biYeWfT-joUaXdnAjjzVvk1yNw2QtlK2KTPEhDmASPH8gTGjduTl6dRd5YWGhQkoK7Zk06ml6jq6MU52IcJ0s31KQ</photo_reference>
   <width>1222</width>
   <height>1222</height>
   <html_attribution>&lt;a href=&quot;https://maps.google.com/maps/contrib/110207028788866865993/photos&quot;&gt;Piscataquis Valley Adult Education Cooperative (PVAEC)&lt;/a&gt;</html_attribution>
  </photo>
  <place_id>ChIJvUlp4eoisEwRbYuCJWqtsac</place_id>
 </result>
 <result>
  <name>Ymca</name>
  <type>point_of_interest</type>
  <type>establishment</type>
  <formatted_address>48 Park St, Dover-Foxcroft, ME 04426, United States</formatted_address>
  <geometry>
   <location>
    <lat>45.1916240</lat>
    <lng>-69.2371028</lng>
   </location>
   <viewport>
    <southwest>
     <lat>45.1915493</lat>
     <lng>-69.2371483</lng>
    </southwest>
    <northeast>
     <lat>45.1916649</lat>
     <lng>-69.2370775</lng>
    </northeast>
   </viewport>
  </geometry>
  <icon>https://maps.gstatic.com/mapfiles/place_api/icons/school-71.png</icon>
  <reference>CmRSAAAAJ0BCAaOVV3PjlTVifPyz1UucUSBoTJDuyhS1l7rP2jf0NWm-z0ByNBFJrsZpqmu2lpMqVAOHiFAE9Xhza8cS39ht7-5Zke3Q5STeYUopgxhiwmi957l2nt5RDuVaOU9bEhC4BcsKeK0rHobIVzdXUZFwGhTxG_EJlEu3AB-iLH6t1TfEwPMxYg</reference>
  <id>f69d406e7a48408d9480f224ce83e8ff7eba02ff</id>
  <opening_hours>
   <open_now>false</open_now>
  </opening_hours>
  <place_id>ChIJVeb7CcEisEwRpVtiC_9osLo</place_id>
 </result>
 <result>
  <name>Freedom House Bed &amp; Breakfast</name>
  <type>lodging</type>
  <type>point_of_interest</type>
  <type>establishment</type>
  <formatted_address>140 E Main St, Dover-Foxcroft, ME 04426, United States</formatted_address>
  <geometry>
   <location>
    <lat>45.1806393</lat>
    <lng>-69.2185210</lng>
   </location>
   <viewport>
    <southwest>
     <lat>45.1806119</lat>
     <lng>-69.2185712</lng>
    </southwest>
    <northeast>
     <lat>45.1806889</lat>
     <lng>-69.2184298</lng>
    </northeast>
   </viewport>
  </geometry>
  <icon>https://maps.gstatic.com/mapfiles/place_api/icons/lodging-71.png</icon>
  <reference>CmRRAAAAgOoPJDzaW29JxnuDntMRZcZWhBmk17InFJhJLNczo7x-qrACw1QsOGhA2Ziw9OmZkzwGCuSaD_t3lYY57jsYuIqSpaWueOQTg9HMCIkfQQi4qQbQsXGBroKzbEVs1iI6EhDWaHgrbJ_AravPMv-cU8JWGhTZUdIkcK6FzjOF90S-oPV0k37EsQ</reference>
  <id>3fe4f829bb055d57ad3b7190380d0d9cd09ead28</id>
  <place_id>ChIJc69t9O8isEwRc5uwWDkWDnQ</place_id>
 </result>
 <result>
  <name>Baxter State Park</name>
  <type>park</type>
  <type>point_of_interest</type>
  <type>establishment</type>
  <formatted_address>64 Balsam Drive, Millinocket, ME 04462, United States</formatted_address>
  <geometry>
   <location>
    <lat>46.0612509</lat>
    <lng>-68.9367715</lng>
   </location>
   <viewport>
    <southwest>
     <lat>45.6597666</lat>
     <lng>-69.0028408</lng>
    </southwest>
    <northeast>
     <lat>46.3170071</lat>
     <lng>-68.7385637</lng>
    </northeast>
   </viewport>
  </geometry>
  <rating>4.7</rating>
  <icon>https://maps.gstatic.com/mapfiles/place_api/icons/generic_recreational-71.png</icon>
  <reference>CmRSAAAASeQEyE9QXWlIjp6KCivhrasjItvTEzS_cssba-WkLk_XmYfm7db6e_fs_b1IBR8v0MRgtQLTNp2OHTTKSJmDffhQ961hL9KX1PBLvHqAPa4YFQ1Gj0iinmMPwXNNqvMfEhDtKiO93oJPuY2GYOTe7KJDGhTK1FQkI-HnZgL6oIWeHgnjtFEuWQ</reference>
  <id>dc4697b4b1bb6215f5b84c41303a2434c6b57079</id>
  <opening_hours>
   <open_now>false</open_now>
  </opening_hours>
  <photo>
   <photo_reference>CoQBdwAAABFjGe26rgy5dyB0Uxj27Fqlc2ITYaiRQLz2QKsTBtXhmvBNEsnlXcQHDJVYe-u47m8v82ImFfpZn2yZFjt8vJgKJs3M4bV8lkn_TwNO2Ng4IEa6huAkzUP4LAPrqL0KsmHgDlcVXLI8oQVXgVdR2lzIk9DIxGh6kMT1tk8mDblQEhB2qlb_smpU4A1Yk6DT0cQvGhQPLbYGZ-ByWsoI6bVXBTw0hHxdAA</photo_reference>
   <width>4608</width>
   <height>3456</height>
   <html_attribution>&lt;a href=&quot;https://maps.google.com/maps/contrib/110302699848997270605/photos&quot;&gt;Brian&lt;/a&gt;</html_attribution>
  </photo>
  <place_id>ChIJ92-mnyzhukwR8UaU54_FMaY</place_id>
 </result>
</PlaceSearchResponse>
<?xml version="1.0" encoding="UTF-8"?>
<PlaceSearchResponse>
 <status>OVER_QUERY_LIMIT</status>
 <error_message>You have exceeded your daily request quota for this API.</error_message>
</PlaceSearchResponse>
<?xml version="1.0" encoding="UTF-8"?>
<PlaceSearchResponse>
 <status>OVER_QUERY_LIMIT</status>
 <error_message>You have exceeded your daily request quota for this API.</error_message>
</PlaceSearchResponse>
<?xml version="1.0" encoding="UTF-8"?>
<PlaceSearchResponse>
 <status>OVER_QUERY_LIMIT</status>
 <error_message>You have exceeded your daily request quota for this API.</error_message>
</PlaceSearchResponse>
<?xml version="1.0" encoding="UTF-8"?>
<PlaceSearchResponse>
 <status>OK</status>
 <result>
  <name>Piscataquis Registry of Deeds</name>
  <type>local_government_office</type>
  <type>point_of_interest</type>
  <type>establishment</type>
  <formatted_address>159 E Main St #10, Dover-Foxcroft, ME 04426, United States</formatted_address>
  <geometry>
   <location>
    <lat>45.1835122</lat>
    <lng>-69.2272529</lng>
   </location>
   <viewport>
    <southwest>
     <lat>45.1834648</lat>
     <lng>-69.2272580</lng>
    </southwest>
    <northeast>
     <lat>45.1835904</lat>
     <lng>-69.2272444</lng>
    </northeast>
   </viewport>
  </geometry>
  <icon>https://maps.gstatic.com/mapfiles/place_api/icons/civic_building-71.png</icon>
  <reference>CmRRAAAA8htuoxN8ogEc4ucbQx6ee3_FoFuFa5SY1QFVikFCKLlrPXAQ66tZSG9j2ARCHNrvX7Igi76oUsAMfzP7h7NylY0aSriIigZcKzaiDjyDjo5DFqHLE5tBbi3tQsBaP0qzEhCgrLN6Ve4Te2pvH2I5l-ZHGhT1UyfOiw0ACax4znYjU_sEgmE-Tg</reference>
  <id>46b637c3b02e8906365437169072aa50b5a53328</id>
  <place_id>ChIJJcMusvkisEwRC9RLpX1YQmE</place_id>
 </result>
 <result>
  <name>Piscataquis County Administration</name>
  <type>local_government_office</type>
  <type>point_of_interest</type>
  <type>establishment</type>
  <formatted_address>163 E Main St, Dover-Foxcroft, ME 04426, United States</formatted_address>
  <geometry>
   <location>
    <lat>45.1798511</lat>
    <lng>-69.2174770</lng>
   </location>
   <viewport>
    <southwest>
     <lat>45.1797593</lat>
     <lng>-69.2177443</lng>
    </southwest>
    <northeast>
     <lat>45.1798817</lat>
     <lng>-69.2173879</lng>
    </northeast>
   </viewport>
  </geometry>
  <icon>https://maps.gstatic.com/mapfiles/place_api/icons/civic_building-71.png</icon>
  <reference>CmRSAAAAxYqRBatE-i3S74O87LHOgT3wAaaxfUKk62dmfgoWH1BSacEgOlXbcMk2Sqqmps4WTnNuQGOLZ-TZQr2N8Ge0F9f91F5lzfdJ8ZRI3l83L-lNiJV2rTmTkIkn1G2EQKr7EhBGOpMvtH51YlW3K1XGfA-YGhSCQ7Ti5Cljhd9Koh0wHLyGChCPRA</reference>
  <id>5a32ce8a11b98a7a60b33789c10a2f4e272ecfb4</id>
  <place_id>ChIJ_8IusvkisEwRNHwZ81-jVNw</place_id>
 </result>
 <result>
  <name>Piscataquis County Sheriff</name>
  <type>police</type>
  <type>local_government_office</type>
  <type>point_of_interest</type>
  <type>establishment</type>
  <formatted_address>52 Court St, Dover-Foxcroft, ME 04426, United States</formatted_address>
  <geometry>
   <location>
    <lat>45.1806165</lat>
    <lng>-69.2253198</lng>
   </location>
   <viewport>
    <southwest>
     <lat>45.1806089</lat>
     <lng>-69.2254336</lng>
    </southwest>
    <northeast>
     <lat>45.1806305</lat>
     <lng>-69.2252576</lng>
    </northeast>
   </viewport>
  </geometry>
  <icon>https://maps.gstatic.com/mapfiles/place_api/icons/police-71.png</icon>
  <reference>CmRRAAAA0KB7Mfa46EUs5H7rOfVaG7cnzP_nUIjf0qanT3v_JTwSfAtzgPvT4lhw2Vho-b1d6brhFK36hn8SyOeiSY6-V11AynKT27_Z6R_SjxDLwrei-9yaumEVdwoQYkKvnDpmEhDeckeqCYr_jdOM-Fsuux_UGhT17Cgbxvavf6Uc_Xsxqb0jCPYtyg</reference>
  <id>baed8c49893b0233f5508245889ef967284100c8</id>
  <place_id>ChIJGza84foisEwRf0rMUz7csWQ</place_id>
 </result>
 <result>
  <name>Piscataquis County Jail</name>
  <type>point_of_interest</type>
  <type>establishment</type>
  <formatted_address>52 Court St, Dover-Foxcroft, ME 04426, United States</formatted_address>
  <geometry>
   <location>
    <lat>45.1827194</lat>
    <lng>-69.2242956</lng>
   </location>
   <viewport>
    <southwest>
     <lat>45.1827015</lat>
     <lng>-69.2247789</lng>
    </southwest>
    <northeast>
     <lat>45.1827730</lat>
     <lng>-69.2241345</lng>
    </northeast>
   </viewport>
  </geometry>
  <icon>https://maps.gstatic.com/mapfiles/place_api/icons/civic_building-71.png</icon>
  <reference>CmRSAAAAM6TnUDOSY-XT41IS9HfUH7vayvMzLhMRGRuuhl7UV9T8FgaRnfAEiSl2p95CKkFr6vKmHIcIUpOh-aaS7-op7cMqlilEIaj2TeZMEM6DQwaZFW0uZzoaylzRlZNbi5roEhD9ovyJHlx5ndf_ymi9Y-cKGhTwBM2yRjXpO2NlCOw4n21Yu-2TFw</reference>
  <id>5eda4f88a974cd538d0775c317ff3dfec08847de</id>
  <place_id>ChIJGza84foisEwR087S8AkD89A</place_id>
 </result>
 <result>
  <name>Piscataquis Chamber of Commerce</name>
  <type>point_of_interest</type>
  <type>establishment</type>
  <formatted_address>1033 South St, Dover-Foxcroft, ME 04426, United States</formatted_address>
  <geometry>
   <location>
    <lat>45.1722340</lat>
    <lng>-69.2305910</lng>
   </location>
   <viewport>
    <southwest>
     <lat>45.1722300</lat>
     <lng>-69.2307819</lng>
    </southwest>
    <northeast>
     <lat>45.1722458</lat>
     <lng>-69.2305273</lng>
    </northeast>
   </viewport>
  </geometry>
  <icon>https://maps.gstatic.com/mapfiles/place_api/icons/civic_building-71.png</icon>
  <reference>CmRRAAAAE4zey0N5c8suCZNYr7JNJstwPpYcPnEyYTEx3PKFFexydQNLL7O6f-yfK6kPPTw16AFXKgZ03egU7BVi8_dg9tP2QICvIo9DKTLSVbHqUmuJ1FsWQ_BYpdzgk2rlU11JEhAqm5Ex4lNZXjOBtCSbN850GhRq-MHjlCzsZLd-1YaWuecbYp_77w</reference>
  <id>fc318a001ef3187214dd907691489a74da655bc5</id>
  <opening_hours>
   <open_now>false</open_now>
  </opening_hours>
  <place_id>ChIJZW4y-gIjsEwRZNcTaVMLEm8</place_id>
 </result>
 <result>
  <name>Superior Court</name>
  <type>courthouse</type>
  <type>point_of_interest</type>
  <type>establishment</type>
  <formatted_address>159 E Main St # 21, Dover-Foxcroft, ME 04426, United States</formatted_address>
  <geometry>
   <location>
    <lat>45.1832176</lat>
    <lng>-69.2241268</lng>
   </location>
  </geometry>
  <icon>https://maps.gstatic.com/mapfiles/place_api/icons/civic_building-71.png</icon>
  <reference>CmRSAAAArHTDmOQZp974utnOUiHGz6A-w1scr7Lte40pvHKE4AwtPHtTcDWUqCk_ptJBWl-qJ09QyCMXoZTNWjil2fF9VjFxdhEafVJFKpIHwDQgwyIEaCOzHR4kkfaGmOlqnzbPEhBY7H_onOQsiutpBpMBwnf7GhQ9G2DSa4TQOZaKJ5hLc4Dt4rDHSg</reference>
  <id>5991d89afb6d8d62bdb1c94d3f350b3b3aa6377a</id>
  <place_id>ChIJJcMusvkisEwRhcsOb5X83fQ</place_id>
 </result>
 <result>
  <name>Piscataquis County Republican Headquarters</name>
  <type>local_government_office</type>
  <type>point_of_interest</type>
  <type>establishment</type>
  <formatted_address>25 North St, Dover-Foxcroft, ME 04426, United States</formatted_address>
  <geometry>
   <location>
    <lat>45.1852192</lat>
    <lng>-69.2309138</lng>
   </location>
   <viewport>
    <southwest>
     <lat>45.1851781</lat>
     <lng>-69.2311942</lng>
    </southwest>
    <northeast>
     <lat>45.1852329</lat>
     <lng>-69.2308204</lng>
    </northeast>
   </viewport>
  </geometry>
  <icon>https://maps.gstatic.com/mapfiles/place_api/icons/civic_building-71.png</icon>
  <reference>CmRRAAAAh8WEVU6XftUsop0uzKEn0csCHhrLpq7-_NtIh1IvPodQvSEKeGctbzifLxJ3I4G39iRIhbGI97gv-7ODtRPoZrl2BjpamyCvl9FQLuG5WxOhu0GNdDSHPeyXHq8WKcIfEhDyoj_EeFC7safx5BVIyv1aGhRGy2QKPPwYN2RuwhkwDND2idxYJA</reference>
  <id>a8a72b12dea0d22a67a9e7c6459805b628a013a8</id>
  <opening_hours>
   <open_now>false</open_now>
  </opening_hours>
  <place_id>ChIJr65INe8isEwRlBB3TLtkwmo</place_id>
 </result>
 <result>
  <name>Piscataquis Valley Fairgrounds</name>
  <type>campground</type>
  <type>park</type>
  <type>lodging</type>
  <type>point_of_interest</type>
  <type>establishment</type>
  <formatted_address>77 Fairview Ave, Dover-Foxcroft, ME 04426, United States</formatted_address>
  <geometry>
   <location>
    <lat>45.1894914</lat>
    <lng>-69.2182164</lng>
   </location>
   <viewport>
    <southwest>
     <lat>45.1890064</lat>
     <lng>-69.2215812</lng>
    </southwest>
    <northeast>
     <lat>45.1896531</lat>
     <lng>-69.2170948</lng>
    </northeast>
   </viewport>
  </geometry>
  <icon>https://maps.gstatic.com/mapfiles/place_api/icons/camping-71.png</icon>
  <reference>CmRSAAAARficIRA_qNqqSpmZeRSdiclAsfVHsDpMmMNFFT0DQPN0qVh7tBAv4rWeFDZrWKXFQ09V5hDl_9YP8P5ywBXvicKdKgT4i6HQkhK3pacckivqBH-l9AirFqzfR1T9VBqpEhBoG2kl7EJnaSIuJcT9aKgOGhTqvpG-Hda0i---9v6ij8wTxM6Cog</reference>
  <id>f2a170702a105568c07c964fcb4fdd6f808069ae</id>
  <photo>
   <photo_reference>CoQBdwAAADlUEv-gvYr8tlG2A_d8Va8RlytJeSzqlHwhQWzZ-PXVoW-NxZKOWu-g1to1xy_hyxvtI74nDw1jxrNFBwMW07ID6uXNr3C7vJ0pYtMVq0loptd5CLFDTlFNaJ2tBIn2RYpMDJpQxMsl6HLzybiTFOBflALqrlcdkbrwPaxPTKHmEhCczbVvdRTyand_ScddTk_lGhR2gyde-KfuSA_QrWXHGu7ANvRCYg</photo_reference>
   <width>3264</width>
   <height>2448</height>
   <html_attribution>&lt;a href=&quot;https://maps.google.com/maps/contrib/106058782893840457502/photos&quot;&gt;Cathy Gauthier&lt;/a&gt;</html_attribution>
  </photo>
  <place_id>ChIJ28WyfvEisEwRu8lBNyp6P7w</place_id>
 </result>
 <result>
  <name>Indian Restaurant In Maine</name>
  <type>restaurant</type>
  <type>food</type>
  <type>point_of_interest</type>
  <type>establishment</type>
  <formatted_address>Piscataquis County, ME, United States</formatted_address>
  <geometry>
   <location>
    <lat>45.2537830</lat>
    <lng>-69.4454689</lng>
   </location>
  </geometry>
  <icon>https://maps.gstatic.com/mapfiles/place_api/icons/restaurant-71.png</icon>
  <reference>CmRSAAAAXnfSqWKydiw79EQBA8IRowzODA7t-Y0SirWr901aIbZdQetcO0JXRtH09fq_t_zEq417qwmoijcpODGqCDFurJHO5PRvpjFq3M0X4_KEyu2UwD-N5PY2PGrmUaCTBimTEhBBzeH_ZSd0UjhALhTbj1MOGhTLv8XyZ8dRx-bYC_FFCgqonhIZMw</reference>
  <id>adb022ba53d8ee75bb38dfa3616d670489b64a70</id>
  <place_id>ChIJ______8_sEwRc2iAQozoF54</place_id>
 </result>
 <result>
  <name>Piscataquis Valley Adult Education Cooperative (PVAEC)</name>
  <type>point_of_interest</type>
  <type>establishment</type>
  <formatted_address>50 Mayo St, Dover-Foxcroft, ME 04426, United States</formatted_address>
  <geometry>
   <location>
    <lat>45.1920964</lat>
    <lng>-69.2295872</lng>
   </location>
  </geometry>
  <icon>https://maps.gstatic.com/mapfiles/place_api/icons/school-71.png</icon>
  <reference>CmRSAAAAH4tyxvOSqhH1iii9KRF7dJUJGGoxRzRih2AX6fbJ4qsbiy07paGsorIA5C-qgBdvIAG_-BXEMy-tJdiXsPWym4Re9FR5HWsKgsJdC84oBw-Bxy0IcFPSIO-0h3tfxVPgEhCPM7SWDiAqeplvmJKk92bCGhSlPzX8vU__nqbj5ZRGOWkJL42plg</reference>
  <id>ff4a21685d1554b4da5c98b205bea7846e34c1eb</id>
  <photo>
   <photo_reference>CoQBdwAAAI1Ymjw2vvnAItzHnTjbjKcb12C0783b_nenzSp1twj9m0c0oziIkfR86Lc7WxD7FsN0XW0Iq5HUVlddurtI6uTSFXYX1mv5jChi0rv0aFn4jRRkKW-oDvVG5_nJKYQQz-mjOjpYBhTjTjdXPfN22yJQAWvHtwiW6WpdX7NtPXKaEhB1lT24eDDGW_K1Fp7YgXbDGhSx2EfBqvF9FN1bRoyw6yn30bkJaA</photo_reference>
   <width>1222</width>
   <height>1222</height>
   <html_attribution>&lt;a href=&quot;https://maps.google.com/maps/contrib/110207028788866865993/photos&quot;&gt;Piscataquis Valley Adult Education Cooperative (PVAEC)&lt;/a&gt;</html_attribution>
  </photo>
  <place_id>ChIJvUlp4eoisEwRbYuCJWqtsac</place_id>
 </result>
 <result>
  <name>Ymca</name>
  <type>point_of_interest</type>
  <type>establishment</type>
  <formatted_address>48 Park St, Dover-Foxcroft, ME 04426, United States</formatted_address>
  <geometry>
   <location>
    <lat>45.1916240</lat>
    <lng>-69.2371028</lng>
   </location>
   <viewport>
    <southwest>
     <lat>45.1915493</lat>
     <lng>-69.2371483</lng>
    </southwest>
    <northeast>
     <lat>45.1916649</lat>
     <lng>-69.2370775</lng>
    </northeast>
   </viewport>
  </geometry>
  <icon>https://maps.gstatic.com/mapfiles/place_api/icons/school-71.png</icon>
  <reference>CmRSAAAAo2MVyDW6hOM82pTGopiMq8126-j9_mNRvIKxL4b60Z0EODGSC3i5lik43tqXnHYTMMfPVPyjj9GyLYnzr1-QxHT8NIBzaR0xPuze9pF4zYXyLQq0Oi3Q1_X_mZ-_nq-MEhCHwUytmwTfNJ5vHZAhpXPYGhRcPFx7URfraBCUWw7eyh_BRMsH-g</reference>
  <id>f69d406e7a48408d9480f224ce83e8ff7eba02ff</id>
  <opening_hours>
   <open_now>false</open_now>
  </opening_hours>
  <place_id>ChIJVeb7CcEisEwRpVtiC_9osLo</place_id>
 </result>
 <result>
  <name>Freedom House Bed &amp; Breakfast</name>
  <type>lodging</type>
  <type>point_of_interest</type>
  <type>establishment</type>
  <formatted_address>140 E Main St, Dover-Foxcroft, ME 04426, United States</formatted_address>
  <geometry>
   <location>
    <lat>45.1806393</lat>
    <lng>-69.2185210</lng>
   </location>
   <viewport>
    <southwest>
     <lat>45.1806119</lat>
     <lng>-69.2185712</lng>
    </southwest>
    <northeast>
     <lat>45.1806889</lat>
     <lng>-69.2184298</lng>
    </northeast>
   </viewport>
  </geometry>
  <icon>https://maps.gstatic.com/mapfiles/place_api/icons/lodging-71.png</icon>
  <reference>CmRRAAAAQfVIqQZsTyS5vs1qx7wIFDA5b2TItLahqJtUs9ddQBzprg1vcGyHf5x3n3iSRnEh-xLbLnopTNbTkvrreIKtoHKoLOmDF1BXVpMY7YlqS_egvEO7OhOdADbQax5UBeEvEhAn8Bj6z4_KWUtkFJLssCHbGhROe8D9EGj2NPF4SrxoJiAmwbR98g</reference>
  <id>3fe4f829bb055d57ad3b7190380d0d9cd09ead28</id>
  <place_id>ChIJc69t9O8isEwRc5uwWDkWDnQ</place_id>
 </result>
 <result>
  <name>Baxter State Park</name>
  <type>park</type>
  <type>point_of_interest</type>
  <type>establishment</type>
  <formatted_address>64 Balsam Drive, Millinocket, ME 04462, United States</formatted_address>
  <geometry>
   <location>
    <lat>46.0612509</lat>
    <lng>-68.9367715</lng>
   </location>
   <viewport>
    <southwest>
     <lat>45.6597666</lat>
     <lng>-69.0028408</lng>
    </southwest>
    <northeast>
     <lat>46.3170071</lat>
     <lng>-68.7385637</lng>
    </northeast>
   </viewport>
  </geometry>
  <rating>4.7</rating>
  <icon>https://maps.gstatic.com/mapfiles/place_api/icons/generic_recreational-71.png</icon>
  <reference>CmRSAAAAfc3AtzM-f53b0HCJZ0LpPo7CriVfZZhcb3UITJntI-o0v_CPttG3LVsg9DHfbKarkEoZ5d_21ZGwYTOG3e31L7oc1zYw3_KUYosLO55n-s1ItPbBd5TW8K5QMZY8lXQbEhDSVdPRPm_lHV6-ZQDM54gdGhQ4O8LhY27fMsSfCS79VrrOtC24uw</reference>
  <id>dc4697b4b1bb6215f5b84c41303a2434c6b57079</id>
  <opening_hours>
   <open_now>false</open_now>
  </opening_hours>
  <photo>
   <photo_reference>CoQBdwAAACoivn-moeoug4xVyu4YKoSbPPptD2-tlywQEOa8vlqNKXym4lLc2iMUSh01n3Xw04Bt-IJKgWK6pPWX-zLntoSl8lrGNeKhwdepHTvSyEoTQTcaELvnaZPPoDWyYkgvDQtwoZFfJ4mDIUdtYjvazlS6gdpQfTP0NCGf35zobZWYEhAO5eXI01MdTYROpOv1dK7mGhRX1s66ePchUkdVnv_OvLliX29tHA</photo_reference>
   <width>4608</width>
   <height>3456</height>
   <html_attribution>&lt;a href=&quot;https://maps.google.com/maps/contrib/110302699848997270605/photos&quot;&gt;Brian&lt;/a&gt;</html_attribution>
  </photo>
  <place_id>ChIJ92-mnyzhukwR8UaU54_FMaY</place_id>
 </result>
</PlaceSearchResponse>
