<?xml version="1.0" encoding="UTF-8"?>
<PlaceSearchResponse>
 <status>OK</status>
 <result>
  <name>Piscataquis Registry of Deeds</name>
  <type>local_government_office</type>
  <type>point_of_interest</type>
  <type>establishment</type>
  <formatted_address>159 E Main St #10, Dover-Foxcroft, ME 04426, United States</formatted_address>
  <geometry>
   <location>
    <lat>45.1835122</lat>
    <lng>-69.2272529</lng>
   </location>
   <viewport>
    <southwest>
     <lat>45.1834648</lat>
     <lng>-69.2272580</lng>
    </southwest>
    <northeast>
     <lat>45.1835904</lat>
     <lng>-69.2272444</lng>
    </northeast>
   </viewport>
  </geometry>
  <icon>https://maps.gstatic.com/mapfiles/place_api/icons/civic_building-71.png</icon>
  <reference>CmRRAAAAd2nAG2EzpSo7epNZU4vuZJGwCTLpEy0MLaMQC8eILycdTabPEF5AJ_9qV9d3rz4Rov21CjWVPPUpHXF3L86l8N8b-OQtEJw1mek0wAhI1wYlpXgTvaCR4q8oeVYSy5fNEhCc5KgYhjoOerqixhC80vzDGhRMtH66waJkJ2B99R04xdkZu_DEvA</reference>
  <id>46b637c3b02e8906365437169072aa50b5a53328</id>
  <place_id>ChIJJcMusvkisEwRC9RLpX1YQmE</place_id>
 </result>
 <result>
  <name>Piscataquis County Administration</name>
  <type>local_government_office</type>
  <type>point_of_interest</type>
  <type>establishment</type>
  <formatted_address>163 E Main St, Dover-Foxcroft, ME 04426, United States</formatted_address>
  <geometry>
   <location>
    <lat>45.1798511</lat>
    <lng>-69.2174770</lng>
   </location>
   <viewport>
    <southwest>
     <lat>45.1797593</lat>
     <lng>-69.2177443</lng>
    </southwest>
    <northeast>
     <lat>45.1798817</lat>
     <lng>-69.2173879</lng>
    </northeast>
   </viewport>
  </geometry>
  <icon>https://maps.gstatic.com/mapfiles/place_api/icons/civic_building-71.png</icon>
  <reference>CmRSAAAA71NW4mOhMpjJt625F0fdbbSmxtekav85jif059DJkgz2ajRWs5IpETAYYisgQZLT9OZkj4lUBaNgGYm8rn1jpDXXpYhSRwTSvZDaBOZ_IdJCng0A8imI3vko3n9taJrUEhA_QeZbh9aJKwITBN78MUKcGhRlleqv--YhtbcLfpJI-6JbcRAzEw</reference>
  <id>5a32ce8a11b98a7a60b33789c10a2f4e272ecfb4</id>
  <place_id>ChIJ_8IusvkisEwRNHwZ81-jVNw</place_id>
 </result>
 <result>
  <name>Piscataquis County Sheriff</name>
  <type>police</type>
  <type>local_government_office</type>
  <type>point_of_interest</type>
  <type>establishment</type>
  <formatted_address>52 Court St, Dover-Foxcroft, ME 04426, United States</formatted_address>
  <geometry>
   <location>
    <lat>45.1806165</lat>
    <lng>-69.2253198</lng>
   </location>
   <viewport>
    <southwest>
     <lat>45.1806089</lat>
     <lng>-69.2254336</lng>
    </southwest>
    <northeast>
     <lat>45.1806305</lat>
     <lng>-69.2252576</lng>
    </northeast>
   </viewport>
  </geometry>
  <icon>https://maps.gstatic.com/mapfiles/place_api/icons/police-71.png</icon>
  <reference>CmRRAAAArbev4lIwz8IIa1bXMYH_05P0dBcTf-ZsV2LcMK4tPlFI2gQlME9dI3Kpvsp3xS210gGsbetwuoPEG5W4YmiHA4E6uw07LRJ_BCi3QbSCAu29jy11s_WbDygaraIv7LryEhAX89Div6GJyuVe7JGg8TvlGhQh-RFDA6NL65cPdFmLw9LC1MGKDw</reference>
  <id>baed8c49893b0233f5508245889ef967284100c8</id>
  <place_id>ChIJGza84foisEwRf0rMUz7csWQ</place_id>
 </result>
 <result>
  <name>Piscataquis County Jail</name>
  <type>point_of_interest</type>
  <type>establishment</type>
  <formatted_address>52 Court St, Dover-Foxcroft, ME 04426, United States</formatted_address>
  <geometry>
   <location>
    <lat>45.1827194</lat>
    <lng>-69.2242956</lng>
   </location>
   <viewport>
    <southwest>
     <lat>45.1827015</lat>
     <lng>-69.2247789</lng>
    </southwest>
    <northeast>
     <lat>45.1827730</lat>
     <lng>-69.2241345</lng>
    </northeast>
   </viewport>
  </geometry>
  <icon>https://maps.gstatic.com/mapfiles/place_api/icons/civic_building-71.png</icon>
  <reference>CmRSAAAAei9xETHgrmaVDb2Qc5ivxlkIt6-bp72chty86BdqMXEFYweCUOe4S8oBWKi_WvnUIVrGIQnEyiJMT2msuj06GonKGVX8LTUDMbQdJPGkuLXCiAaoI7spp1U23HGuYmW1EhA-XqeYTLs8eFRAgKkSvLdFGhQq3mCaMbMdqeeYZui9gjBdTQXXhg</reference>
  <id>5eda4f88a974cd538d0775c317ff3dfec08847de</id>
  <place_id>ChIJGza84foisEwR087S8AkD89A</place_id>
 </result>
 <result>
  <name>Piscataquis Chamber of Commerce</name>
  <type>point_of_interest</type>
  <type>establishment</type>
  <formatted_address>1033 South St, Dover-Foxcroft, ME 04426, United States</formatted_address>
  <geometry>
   <location>
    <lat>45.1722340</lat>
    <lng>-69.2305910</lng>
   </location>
   <viewport>
    <southwest>
     <lat>45.1722300</lat>
     <lng>-69.2307819</lng>
    </southwest>
    <northeast>
     <lat>45.1722458</lat>
     <lng>-69.2305273</lng>
    </northeast>
   </viewport>
  </geometry>
  <icon>https://maps.gstatic.com/mapfiles/place_api/icons/civic_building-71.png</icon>
  <reference>CmRRAAAAmyzzfhLO72GT70MQV02lTXRdvmg-rfKq_T-xQ1D99xPYZkWqunYCcpX3gxF1Iar5t_HCCmzsH_BZ-qzKzRxoFLtOdCc6Heu9MmnbT_e8BZWzkzuNeNGRMlQRa6QKxYHaEhBMjNQi9K00lypWs-6M4lWoGhQMgFSRKiplkdAbe1-NMDHzsM6uTQ</reference>
  <id>fc318a001ef3187214dd907691489a74da655bc5</id>
  <opening_hours>
   <open_now>false</open_now>
  </opening_hours>
  <place_id>ChIJZW4y-gIjsEwRZNcTaVMLEm8</place_id>
 </result>
 <result>
  <name>Superior Court</name>
  <type>courthouse</type>
  <type>point_of_interest</type>
  <type>establishment</type>
  <formatted_address>159 E Main St # 21, Dover-Foxcroft, ME 04426, United States</formatted_address>
  <geometry>
   <location>
    <lat>45.1832176</lat>
    <lng>-69.2241268</lng>
   </location>
  </geometry>
  <icon>https://maps.gstatic.com/mapfiles/place_api/icons/civic_building-71.png</icon>
  <reference>CmRSAAAAYuI_-bTKdjDC3I2ssti2_qjSdXKPLnPEoe_5IeQOk2R7cCbeISQ3R3_HLauaiIZ0C-GrqoXKLesWxMkFiaq1wZmrrok8am6BL_qPHS2ia_dnl5Fya7ABFq-8SgYDhntyEhDDs_kl4odf3eCr8Ufck35EGhTpUWal5u1yxy9GetuzPcotoGXX4w</reference>
  <id>5991d89afb6d8d62bdb1c94d3f350b3b3aa6377a</id>
  <place_id>ChIJJcMusvkisEwRhcsOb5X83fQ</place_id>
 </result>
 <result>
  <name>Piscataquis County Republican Headquarters</name>
  <type>local_government_office</type>
  <type>point_of_interest</type>
  <type>establishment</type>
  <formatted_address>25 North St, Dover-Foxcroft, ME 04426, United States</formatted_address>
  <geometry>
   <location>
    <lat>45.1852192</lat>
    <lng>-69.2309138</lng>
   </location>
   <viewport>
    <southwest>
     <lat>45.1851781</lat>
     <lng>-69.2311942</lng>
    </southwest>
    <northeast>
     <lat>45.1852329</lat>
     <lng>-69.2308204</lng>
    </northeast>
   </viewport>
  </geometry>
  <icon>https://maps.gstatic.com/mapfiles/place_api/icons/civic_building-71.png</icon>
  <reference>CmRRAAAAKV9DM401zXgTxlgEJYFoCvbFfEUVfEeIs11-w-hVYgUTw2JVtXThDjjXRLuVBirREt3t2_kunNaUmaa9y1Jx9vF8qeMLTkDkhCib7FRWI70G8QsKIGirBsojSnWmKhNlEhByOdPtiHTgcOovcKU6yeywGhR_ODKgSJHW7_cFbVyDlqwa5SVW1w</reference>
  <id>a8a72b12dea0d22a67a9e7c6459805b628a013a8</id>
  <opening_hours>
   <open_now>false</open_now>
  </opening_hours>
  <place_id>ChIJr65INe8isEwRlBB3TLtkwmo</place_id>
 </result>
 <result>
  <name>Piscataquis Valley Fairgrounds</name>
  <type>campground</type>
  <type>park</type>
  <type>lodging</type>
  <type>point_of_interest</type>
  <type>establishment</type>
  <formatted_address>77 Fairview Ave, Dover-Foxcroft, ME 04426, United States</formatted_address>
  <geometry>
   <location>
    <lat>45.1894914</lat>
    <lng>-69.2182164</lng>
   </location>
   <viewport>
    <southwest>
     <lat>45.1890064</lat>
     <lng>-69.2215812</lng>
    </southwest>
    <northeast>
     <lat>45.1896531</lat>
     <lng>-69.2170948</lng>
    </northeast>
   </viewport>
  </geometry>
  <icon>https://maps.gstatic.com/mapfiles/place_api/icons/camping-71.png</icon>
  <reference>CmRSAAAAzIC8BjyLTiZPbKw3SJVzprgqc2GgXOiqDwybj4Re6IBgom9N5kBmciynbwb0VmajJye_0t6svattY54Jk1PTMm--4Kg2kTl6PgFfBE3Nz5nig_NxHrVi4lO_WUSFOW5bEhCsXQShUpCe5CWbesaHeFe6GhS64SXevP7hpw8LCkHeccc2Yn_yag</reference>
  <id>f2a170702a105568c07c964fcb4fdd6f808069ae</id>
  <photo>
   <photo_reference>CoQBdwAAAGjMuMTeqQ4gLbWZxlDVYtMxK2XkS9-plYHIKfn8i0hCDouNvE1iiMMuiuArTqci7zq-z4g-xFHDBTLlyZ6x8Zqfjp7YksIRNKf_LFZ65lcgXDLel2cA3sQwbKm4-Q6J14mQRsOAfyW5s7kYvvtBOA_gSjLhWsJnSkNgS1n6FNjAEhBT_KGWgaeyXB0UVBxvETwtGhQ-7AMIxF4gwAivKqYUCRoHcyXE9w</photo_reference>
   <width>3264</width>
   <height>2448</height>
   <html_attribution>&lt;a href=&quot;https://maps.google.com/maps/contrib/106058782893840457502/photos&quot;&gt;Cathy Gauthier&lt;/a&gt;</html_attribution>
  </photo>
  <place_id>ChIJ28WyfvEisEwRu8lBNyp6P7w</place_id>
 </result>
 <result>
  <name>Indian Restaurant In Maine</name>
  <type>restaurant</type>
  <type>food</type>
  <type>point_of_interest</type>
  <type>establishment</type>
  <formatted_address>Piscataquis County, ME, United States</formatted_address>
  <geometry>
   <location>
    <lat>45.2537830</lat>
    <lng>-69.4454689</lng>
   </location>
  </geometry>
  <icon>https://maps.gstatic.com/mapfiles/place_api/icons/restaurant-71.png</icon>
  <reference>CmRSAAAAjp29fBXDmfgzLvPhoqc5Owtbhqz3DdId2msWmdmED4CnRWRNayQZvIysB9Fs5y65ngnvBTWnHt-gp5QBT0MP0W66XkfAvgyOazmwh4du81GPOMtNEVqadt2H7eTJ62UaEhCukYQ9YIXzaEpjUe_oKdHOGhQq3ZhuSr4AjwP_5zCBr8zOSFAEiA</reference>
  <id>adb022ba53d8ee75bb38dfa3616d670489b64a70</id>
  <place_id>ChIJ______8_sEwRc2iAQozoF54</place_id>
 </result>
 <result>
  <name>Piscataquis Valley Adult Education Cooperative (PVAEC)</name>
  <type>point_of_interest</type>
  <type>establishment</type>
  <formatted_address>50 Mayo St, Dover-Foxcroft, ME 04426, United States</formatted_address>
  <geometry>
   <location>
    <lat>45.1920964</lat>
    <lng>-69.2295872</lng>
   </location>
  </geometry>
  <icon>https://maps.gstatic.com/mapfiles/place_api/icons/school-71.png</icon>
  <reference>CmRSAAAA166FLz0RAgBcCp2SiNXwzG3BV8I7aUfOKSDTHUoGYtMB41QR7x1Jls6QU2kYCbtZEhBd4QLVbk7MmKPrLgZes8fQ6PL29BmnRL5EiWngH8I8H5NNbPdbfFkWkyWNYeVCEhBa_sjAY6qLFdNQO8TiUHkAGhTcu0DCi0Q7SReWcj75_iUucl4Z4A</reference>
  <id>ff4a21685d1554b4da5c98b205bea7846e34c1eb</id>
  <photo>
   <photo_reference>CoQBdwAAAE2wY131yCDXcYPTWZSMcYbr5SwBcfnYqzSEU8bcu9n8OnhxVRyYqPpkBHClR7X7p-DMS0gzjJ2tkdWpUx8xek6pcfg9laa1aJEsTBO1qpzXmb0DZFyx9KYtvLgfK9yU1zkrzSE7vIS3GJ3ciXsHvGkww30ERXgNvcb9O_ahoEAZEhCdt8haRtRkKaRRRZIYJeGbGhRGrgFAm2-OW8UXXjd13TEIwmbWZQ</photo_reference>
   <width>1222</width>
   <height>1222</height>
   <html_attribution>&lt;a href=&quot;https://maps.google.com/maps/contrib/110207028788866865993/photos&quot;&gt;Piscataquis Valley Adult Education Cooperative (PVAEC)&lt;/a&gt;</html_attribution>
  </photo>
  <place_id>ChIJvUlp4eoisEwRbYuCJWqtsac</place_id>
 </result>
 <result>
  <name>Ymca</name>
  <type>point_of_interest</type>
  <type>establishment</type>
  <formatted_address>48 Park St, Dover-Foxcroft, ME 04426, United States</formatted_address>
  <geometry>
   <location>
    <lat>45.1916240</lat>
    <lng>-69.2371028</lng>
   </location>
   <viewport>
    <southwest>
     <lat>45.1915493</lat>
     <lng>-69.2371483</lng>
    </southwest>
    <northeast>
     <lat>45.1916649</lat>
     <lng>-69.2370775</lng>
    </northeast>
   </viewport>
  </geometry>
  <icon>https://maps.gstatic.com/mapfiles/place_api/icons/school-71.png</icon>
  <reference>CmRSAAAAXjCg1WsDWu0awIIdP4uwjo_aXg2HpCLqKfynIJ2cCm1cUUtU_coJiR8Rv2MPG8lMvSzsehajKLuKIBP9mvwnRD3bH1JzeYR8bT9uHN-4bnnvoY9XV-5IXceZr_rpXjcxEhAetcV9ItdQsKNWtK2FWDcXGhRaWyrv1ZE0-z8JUQctrub32dlA4A</reference>
  <id>f69d406e7a48408d9480f224ce83e8ff7eba02ff</id>
  <opening_hours>
   <open_now>false</open_now>
  </opening_hours>
  <place_id>ChIJVeb7CcEisEwRpVtiC_9osLo</place_id>
 </result>
 <result>
  <name>Freedom House Bed &amp; Breakfast</name>
  <type>lodging</type>
  <type>point_of_interest</type>
  <type>establishment</type>
  <formatted_address>140 E Main St, Dover-Foxcroft, ME 04426, United States</formatted_address>
  <geometry>
   <location>
    <lat>45.1806393</lat>
    <lng>-69.2185210</lng>
   </location>
   <viewport>
    <southwest>
     <lat>45.1806119</lat>
     <lng>-69.2185712</lng>
    </southwest>
    <northeast>
     <lat>45.1806889</lat>
     <lng>-69.2184298</lng>
    </northeast>
   </viewport>
  </geometry>
  <icon>https://maps.gstatic.com/mapfiles/place_api/icons/lodging-71.png</icon>
  <reference>CmRRAAAAWMkrHn_O6veiepYuz0PbPkxGXySD5U4dZr_jEtyMuLcD-GR61pN5QY3uPmxNf5uk_dPuI9wrXnr-qJ0BNA71GWlJJA0JLc0OA8yc8XyyKnxz8NVR5zCXpphQBzq19cM_EhAufaxY6cZnD80eBwRjdzfkGhQ-LnlN3Zhgz4cRN7dfcca8CMqzbQ</reference>
  <id>3fe4f829bb055d57ad3b7190380d0d9cd09ead28</id>
  <place_id>ChIJc69t9O8isEwRc5uwWDkWDnQ</place_id>
 </result>
 <result>
  <name>Baxter State Park</name>
  <type>park</type>
  <type>point_of_interest</type>
  <type>establishment</type>
  <formatted_address>64 Balsam Drive, Millinocket, ME 04462, United States</formatted_address>
  <geometry>
   <location>
    <lat>46.0612509</lat>
    <lng>-68.9367715</lng>
   </location>
   <viewport>
    <southwest>
     <lat>45.6597666</lat>
     <lng>-69.0028408</lng>
    </southwest>
    <northeast>
     <lat>46.3170071</lat>
     <lng>-68.7385637</lng>
    </northeast>
   </viewport>
  </geometry>
  <rating>4.7</rating>
  <icon>https://maps.gstatic.com/mapfiles/place_api/icons/generic_recreational-71.png</icon>
  <reference>CmRSAAAANWx9ncQRhEXnplinyZZXV4cUFQsp4S8_Y7oiSTjY7RHRJwXTJgB1HGFR5QyOWb9M3nbHH-MxxKxLzYxrbT3o7he16XVnlzl_UW58buKq5XFOlOhGQ9mMOXr4k_tJkXOWEhCDGYXRLmuVCK2f29HMr8snGhROWrWr9PemhET7BCk3JbSJgcFP9w</reference>
  <id>dc4697b4b1bb6215f5b84c41303a2434c6b57079</id>
  <opening_hours>
   <open_now>false</open_now>
  </opening_hours>
  <photo>
   <photo_reference>CoQBdwAAADJiCCMC95fEoeJLN2-1MfObMN4U-Rld3pqRPQJeKZXFFi0ZWedmWdZrq2ouVRAQO2zDRP_WWCtg7AULXVxg8la6h6-NYmtvV1x1bwGzl1oxiDYdhDsxcwVGBSNAGL3hj8brJhJnGjmGd1mY9B9gVwKJKlFVXbzg38mkuQuK9stiEhASTlW3-HSYg-LsecSHlXMsGhTI6uUW-BSzUswtUmm4yeZ9ax3toQ</photo_reference>
   <width>4608</width>
   <height>3456</height>
   <html_attribution>&lt;a href=&quot;https://maps.google.com/maps/contrib/110302699848997270605/photos&quot;&gt;Brian&lt;/a&gt;</html_attribution>
  </photo>
  <place_id>ChIJ92-mnyzhukwR8UaU54_FMaY</place_id>
 </result>
</PlaceSearchResponse>
